{"type": "FeatureCollection", "features": [{"type": "Feature", "properties": {"nombre": "Dique Rincón del Indio", "tipo": "Dique", "objeto": "Dique"}, "geometry": {"type": "Point", "coordinates": [-67.78394449, -34.86883417]}}, {"type": "Feature", "properties": {"nombre": "Dique El Tigre", "tipo": "Dique", "objeto": "Dique"}, "geometry": {"type": "Point", "coordinates": [-68.61369851, -34.60839237]}}, {"type": "Feature", "properties": {"nombre": "Dique Las Tunas", "tipo": "Dique", "objeto": "Dique"}, "geometry": {"type": "Point", "coordinates": [-69.37299256, -33.37544162]}}, {"type": "Feature", "properties": {"nombre": "Dique El Badén", "tipo": "Dique", "objeto": "Dique"}, "geometry": {"type": "Point", "coordinates": [-65.69521883, -27.62110231]}}, {"type": "Feature", "properties": {"nombre": "Dique San Ignacio", "tipo": "Dique", "objeto": "Dique"}, "geometry": {"type": "Point", "coordinates": [-65.67637539, -27.74349333]}}, {"type": "Feature", "properties": {"nombre": "Dique Santa Isabel", "tipo": "Dique", "objeto": "Dique"}, "geometry": {"type": "Point", "coordinates": [-65.44291687, -27.4035759]}}, {"type": "Feature", "properties": {"nombre": "Dique José Ignacio de la Roza", "tipo": "Dique", "objeto": "Dique"}, "geometry": {"type": "Point", "coordinates": [-68.64221511, -31.50244152]}}, {"type": "Feature", "properties": {"nombre": "Dique de Ullum", "tipo": "Dique", "objeto": "Dique"}, "geometry": {"type": "Point", "coordinates": [-68.68500753, -31.50305479]}}, {"type": "Feature", "properties": {"nombre": "Dique Partidor San Emiliano", "tipo": "Dique", "objeto": "Dique"}, "geometry": {"type": "Point", "coordinates": [-68.62777253, -31.51206709]}}, {"type": "Feature", "properties": {"nombre": "Dique Pedernal", "tipo": "Dique", "objeto": "Dique"}, "geometry": {"type": "Point", "coordinates": [-68.74266441, -31.98893138]}}, {"type": "Feature", "properties": {"nombre": "Dique Los Loros", "tipo": "Dique", "objeto": "Dique"}, "geometry": {"type": "Point", "coordinates": [-68.73572286, -31.98312989]}}, {"type": "Feature", "properties": {"nombre": "Dique Ávalos", "tipo": "Dique", "objeto": "Dique"}, "geometry": {"type": "Point", "coordinates": [-68.55655665, -31.45195056]}}, {"type": "Feature", "properties": {"nombre": "Dique Las Peñas", "tipo": "Dique", "objeto": "Dique"}, "geometry": {"type": "Point", "coordinates": [-68.24185821, -29.34526397]}}, {"type": "Feature", "properties": {"nombre": "Dique Pachimoco", "tipo": "Dique", "objeto": "Dique"}, "geometry": {"type": "Point", "coordinates": [-68.83010262, -30.19592554]}}, {"type": "Feature", "properties": {"nombre": "", "tipo": "Dique", "objeto": "Dique"}, "geometry": {"type": "Point", "coordinates": [-68.82287793, -30.1939476]}}, {"type": "Feature", "properties": {"nombre": "", "tipo": "Dique", "objeto": "Dique"}, "geometry": {"type": "Point", "coordinates": [-68.45805404, -31.44904319]}}, {"type": "Feature", "properties": {"nombre": "", "tipo": "Dique", "objeto": "Dique"}, "geometry": {"type": "Point", "coordinates": [-68.47002029, -31.45367084]}}, {"type": "Feature", "properties": {"nombre": "", "tipo": "Dique", "objeto": "Dique"}, "geometry": {"type": "Point", "coordinates": [-68.6289515, -31.5118662]}}, {"type": "Feature", "properties": {"nombre": "", "tipo": "Dique", "objeto": "Dique"}, "geometry": {"type": "Point", "coordinates": [-68.6117157, -31.5120747]}}, {"type": "Feature", "properties": {"nombre": "Dique Las Crucecitas", "tipo": "Dique", "objeto": "Dique"}, "geometry": {"type": "Point", "coordinates": [-68.73951057, -31.98792687]}}, {"type": "Feature", "properties": {"nombre": "", "tipo": "Dique", "objeto": "Dique"}, "geometry": {"type": "Point", "coordinates": [-68.44783902, -31.45899928]}}, {"type": "Feature", "properties": {"nombre": "Presa de Embalse Quebrada de Ullum", "tipo": "Dique", "objeto": "Dique"}, "geometry": {"type": "Point", "coordinates": [-68.64976115, -31.47468114]}}, {"type": "Feature", "properties": {"nombre": "Presa Embalse Los Caracoles", "tipo": "Dique", "objeto": "Dique"}, "geometry": {"type": "Point", "coordinates": [-68.98259379, -31.51927957]}}, {"type": "Feature", "properties": {"nombre": "Presa Punta Negra", "tipo": "Dique", "objeto": "Dique"}, "geometry": {"type": "Point", "coordinates": [-68.81815926, -31.51986493]}}, {"type": "Feature", "properties": {"nombre": "Pueblo Viejo Derivador Los Reales", "tipo": "Dique", "objeto": "Dique"}, "geometry": {"type": "Point", "coordinates": [-65.77346257, -27.11611803]}}, {"type": "Feature", "properties": {"nombre": "Dique Rumi Punco", "tipo": "Dique", "objeto": "Dique"}, "geometry": {"type": "Point", "coordinates": [-65.5918056, -27.99882522]}}, {"type": "Feature", "properties": {"nombre": "", "tipo": "Dique", "objeto": "Dique"}, "geometry": {"type": "Point", "coordinates": [-64.28756203, -27.68731895]}}, {"type": "Feature", "properties": {"nombre": "Dique Sumapampa", "tipo": "Dique", "objeto": "Dique"}, "geometry": {"type": "Point", "coordinates": [-65.57537126, -28.0659897]}}, {"type": "Feature", "properties": {"nombre": "Dique El Jumeal", "tipo": "Dique", "objeto": "Dique"}, "geometry": {"type": "Point", "coordinates": [-65.8092984, -28.45665097]}}, {"type": "Feature", "properties": {"nombre": "Dique La Cañada", "tipo": "Dique", "objeto": "Dique"}, "geometry": {"type": "Point", "coordinates": [-65.528889, -28.168889]}}, {"type": "Feature", "properties": {"nombre": "Dique Pisco Huasi", "tipo": "Dique", "objeto": "Dique"}, "geometry": {"type": "Point", "coordinates": [-63.97914177, -30.30244784]}}, {"type": "Feature", "properties": {"nombre": "Dique Potrero de los Funes", "tipo": "Dique", "objeto": "Dique"}, "geometry": {"type": "Point", "coordinates": [-66.23641847, -33.2345158]}}, {"type": "Feature", "properties": {"nombre": "Dique Vaquerías", "tipo": "Dique", "objeto": "Dique"}, "geometry": {"type": "Point", "coordinates": [-64.46102155, -31.12225086]}}, {"type": "Feature", "properties": {"nombre": "Dique Vulpiani", "tipo": "Dique", "objeto": "Dique"}, "geometry": {"type": "Point", "coordinates": [-65.53395384, -33.65422321]}}, {"type": "Feature", "properties": {"nombre": "Pueblo Viejo Derivador La Horqueta", "tipo": "Dique", "objeto": "Dique"}, "geometry": {"type": "Point", "coordinates": [-65.78484575, -27.12696926]}}, {"type": "Feature", "properties": {"nombre": "Aisol", "tipo": "Dique", "objeto": "Dique"}, "geometry": {"type": "Point", "coordinates": [-68.62335, -34.990908]}}, {"type": "Feature", "properties": {"nombre": "Dique Las Colas", "tipo": "Dique", "objeto": "Dique"}, "geometry": {"type": "Point", "coordinates": [-64.53364003, -26.22228898]}}, {"type": "Feature", "properties": {"nombre": "Dique Tajamar", "tipo": "Dique", "objeto": "Dique"}, "geometry": {"type": "Point", "coordinates": [-64.898967, -26.480155]}}, {"type": "Feature", "properties": {"nombre": "Dique La Aguadita", "tipo": "Dique", "objeto": "Dique"}, "geometry": {"type": "Point", "coordinates": [-65.15611741, -26.75022235]}}, {"type": "Feature", "properties": {"nombre": "Dique El Tala", "tipo": "Dique", "objeto": "Dique"}, "geometry": {"type": "Point", "coordinates": [-65.34084847, -26.06560178]}}, {"type": "Feature", "properties": {"nombre": "Dique Los Cardones", "tipo": "Dique", "objeto": "Dique"}, "geometry": {"type": "Point", "coordinates": [-65.84793324, -26.64662327]}}, {"type": "Feature", "properties": {"nombre": "Dique La Ovejería", "tipo": "Dique", "objeto": "Dique"}, "geometry": {"type": "Point", "coordinates": [-65.76240476, -26.87013661]}}, {"type": "Feature", "properties": {"nombre": "Dique Molle Solo", "tipo": "Dique", "objeto": "Dique"}, "geometry": {"type": "Point", "coordinates": [-65.77329365, -26.87002967]}}, {"type": "Feature", "properties": {"nombre": "Dique El Molino", "tipo": "Dique", "objeto": "Dique"}, "geometry": {"type": "Point", "coordinates": [-65.6707806, -27.31915909]}}, {"type": "Feature", "properties": {"nombre": "Dique Las Tunas", "tipo": "Dique", "objeto": "Dique"}, "geometry": {"type": "Point", "coordinates": [-65.37934254, -28.2372752]}}, {"type": "Feature", "properties": {"nombre": "Dique El Bolsón", "tipo": "Dique", "objeto": "Dique"}, "geometry": {"type": "Point", "coordinates": [-65.28854416, -28.59013175]}}, {"type": "Feature", "properties": {"nombre": "", "tipo": "Dique", "objeto": "Dique"}, "geometry": {"type": "Point", "coordinates": [-59.19590145, -27.26363103]}}, {"type": "Feature", "properties": {"nombre": "Dique Barranqueras", "tipo": "Dique", "objeto": "Dique"}, "geometry": {"type": "Point", "coordinates": [-58.89897801, -27.45644162]}}, {"type": "Feature", "properties": {"nombre": "Dique Soberanía", "tipo": "Dique", "objeto": "Dique"}, "geometry": {"type": "Point", "coordinates": [-58.942803, -27.527108]}}, {"type": "Feature", "properties": {"nombre": "Dique de Báez", "tipo": "Dique", "objeto": "Dique"}, "geometry": {"type": "Point", "coordinates": [-63.50140535, -29.52856553]}}, {"type": "Feature", "properties": {"nombre": "Cortaderas", "tipo": "Dique", "objeto": "Dique"}, "geometry": {"type": "Point", "coordinates": [-68.14524781, -27.55987695]}}, {"type": "Feature", "properties": {"nombre": "", "tipo": "Dique", "objeto": "Dique"}, "geometry": {"type": "Point", "coordinates": [-65.28789321, -28.60071373]}}, {"type": "Feature", "properties": {"nombre": "Los Indios", "tipo": "Dique", "objeto": "Dique"}, "geometry": {"type": "Point", "coordinates": [-67.03518652, -29.21879433]}}, {"type": "Feature", "properties": {"nombre": "", "tipo": "Dique", "objeto": "Dique"}, "geometry": {"type": "Point", "coordinates": [-68.25242482, -29.25785816]}}, {"type": "Feature", "properties": {"nombre": "Dique Tiburcio Benegas", "tipo": "Dique", "objeto": "Dique"}, "geometry": {"type": "Point", "coordinates": [-68.67990693, -33.25164286]}}, {"type": "Feature", "properties": {"nombre": "El Saladillo", "tipo": "Dique", "objeto": "Dique"}, "geometry": {"type": "Point", "coordinates": [-66.27395519, -31.03571609]}}, {"type": "Feature", "properties": {"nombre": "Los Quiroga", "tipo": "Dique", "objeto": "Dique"}, "geometry": {"type": "Point", "coordinates": [-64.30840641, -27.69183965]}}, {"type": "Feature", "properties": {"nombre": "Dique Florentino Ameghino", "tipo": "Dique", "objeto": "Dique"}, "geometry": {"type": "Point", "coordinates": [-66.48393244, -43.70014089]}}, {"type": "Feature", "properties": {"nombre": "Dique Los Sauces", "tipo": "Dique", "objeto": "Dique"}, "geometry": {"type": "Point", "coordinates": [-65.96273523, -25.78812719]}}, {"type": "Feature", "properties": {"nombre": "Dique La Higuera", "tipo": "Dique", "objeto": "Dique"}, "geometry": {"type": "Point", "coordinates": [-65.46629351, -26.38700966]}}, {"type": "Feature", "properties": {"nombre": "", "tipo": "Dique", "objeto": "Dique"}, "geometry": {"type": "Point", "coordinates": [-61.31422522, -24.34702321]}}, {"type": "Feature", "properties": {"nombre": "Bañado de la Estrella", "tipo": "Dique", "objeto": "Dique"}, "geometry": {"type": "Point", "coordinates": [-60.334089, -24.408797]}}, {"type": "Feature", "properties": {"nombre": "La Salada", "tipo": "Dique", "objeto": "Dique"}, "geometry": {"type": "Point", "coordinates": [-59.81750466, -24.69631674]}}, {"type": "Feature", "properties": {"nombre": "Dique Villa La Punta", "tipo": "Dique", "objeto": "Dique"}, "geometry": {"type": "Point", "coordinates": [-64.81878029, -28.36925537]}}, {"type": "Feature", "properties": {"nombre": "Cuchi Pozo", "tipo": "Dique", "objeto": "Dique"}, "geometry": {"type": "Point", "coordinates": [-63.51556129, -27.27878053]}}, {"type": "Feature", "properties": {"nombre": "Dique Cipolletti", "tipo": "Dique", "objeto": "Dique"}, "geometry": {"type": "Point", "coordinates": [-68.93794918, -33.0517538]}}, {"type": "Feature", "properties": {"nombre": "Dique El Carrizal", "tipo": "Dique", "objeto": "Dique"}, "geometry": {"type": "Point", "coordinates": [-68.72030861, -33.30040133]}}, {"type": "Feature", "properties": {"nombre": "Las Compuertas", "tipo": "Dique", "objeto": "Dique"}, "geometry": {"type": "Point", "coordinates": [-68.99619447, -33.04668497]}}, {"type": "Feature", "properties": {"nombre": "Potrerillos", "tipo": "Dique", "objeto": "Dique"}, "geometry": {"type": "Point", "coordinates": [-69.12713155, -32.99478943]}}, {"type": "Feature", "properties": {"nombre": "Dique Acre", "tipo": "Dique", "objeto": "Dique"}, "geometry": {"type": "Point", "coordinates": [-68.78296322, -32.776367]}}, {"type": "Feature", "properties": {"nombre": "Dique Tajamar", "tipo": "Dique", "objeto": "Dique"}, "geometry": {"type": "Point", "coordinates": [-68.83782616, -32.91832304]}}, {"type": "Feature", "properties": {"nombre": "Dique Batalla del Pilar", "tipo": "Dique", "objeto": "Dique"}, "geometry": {"type": "Point", "coordinates": [-68.83835481, -32.92688263]}}, {"type": "Feature", "properties": {"nombre": "Dique Carrodilla", "tipo": "Dique", "objeto": "Dique"}, "geometry": {"type": "Point", "coordinates": [-68.85268298, -32.95770735]}}, {"type": "Feature", "properties": {"nombre": "Dique Matriz Gil", "tipo": "Dique", "objeto": "Dique"}, "geometry": {"type": "Point", "coordinates": [-68.8654866, -32.99463363]}}, {"type": "Feature", "properties": {"nombre": "Dique Drummond", "tipo": "Dique", "objeto": "Dique"}, "geometry": {"type": "Point", "coordinates": [-68.89593911, -33.03235391]}}, {"type": "Feature", "properties": {"nombre": "Dique Las Piedritas", "tipo": "Dique", "objeto": "Dique"}, "geometry": {"type": "Point", "coordinates": [-68.54972851, -32.98605689]}}, {"type": "Feature", "properties": {"nombre": "Dique Galigniana Segura", "tipo": "Dique", "objeto": "Dique"}, "geometry": {"type": "Point", "coordinates": [-68.46417199, -32.92131615]}}, {"type": "Feature", "properties": {"nombre": "Dique Yaucha", "tipo": "Dique", "objeto": "Dique"}, "geometry": {"type": "Point", "coordinates": [-69.12117373, -34.00365438]}}, {"type": "Feature", "properties": {"nombre": "Dique Galileo Vitale", "tipo": "Dique", "objeto": "Dique"}, "geometry": {"type": "Point", "coordinates": [-68.56001691, -34.59111837]}}, {"type": "Feature", "properties": {"nombre": "Dique Piscu Yaco", "tipo": "Dique", "objeto": "Dique"}, "geometry": {"type": "Point", "coordinates": [-64.95624359, -32.55081117]}}, {"type": "Feature", "properties": {"nombre": "Dique Boca del Río", "tipo": "Dique", "objeto": "Dique"}, "geometry": {"type": "Point", "coordinates": [-65.06431197, -33.00660841]}}, {"type": "Feature", "properties": {"nombre": "Dique San Pedro", "tipo": "Dique", "objeto": "Dique"}, "geometry": {"type": "Point", "coordinates": [-65.60782099, -32.93276485]}}, {"type": "Feature", "properties": {"nombre": "Dique Boca de la Sierra", "tipo": "Dique", "objeto": "Dique"}, "geometry": {"type": "Point", "coordinates": [-59.75439604, -37.0632777]}}, {"type": "Feature", "properties": {"nombre": "Dique Saladillo", "tipo": "Dique", "objeto": "Dique"}, "geometry": {"type": "Point", "coordinates": [-65.9070504, -33.17850269]}}, {"type": "Feature", "properties": {"nombre": "Dique La Estrechura", "tipo": "Dique", "objeto": "Dique"}, "geometry": {"type": "Point", "coordinates": [-66.17387603, -33.23858145]}}, {"type": "Feature", "properties": {"nombre": "Dique Los Alazanes", "tipo": "Dique", "objeto": "Dique"}, "geometry": {"type": "Point", "coordinates": [-64.45885367, -30.88532429]}}, {"type": "Feature", "properties": {"nombre": "Dique El Portecelo", "tipo": "Dique", "objeto": "Dique"}, "geometry": {"type": "Point", "coordinates": [-64.51119586, -31.04881701]}}, {"type": "Feature", "properties": {"nombre": "Dique Mal Paso", "tipo": "Dique", "objeto": "Dique"}, "geometry": {"type": "Point", "coordinates": [-64.33062184, -31.32222099]}}, {"type": "Feature", "properties": {"nombre": "Dique Los Molinos 2", "tipo": "Dique", "objeto": "Dique"}, "geometry": {"type": "Point", "coordinates": [-64.44675872, -31.8385649]}}, {"type": "Feature", "properties": {"nombre": "Dique Villa María", "tipo": "Dique", "objeto": "Dique"}, "geometry": {"type": "Point", "coordinates": [-63.25564574, -32.41918204]}}, {"type": "Feature", "properties": {"nombre": "Dique Arroyo Ludueña", "tipo": "Dique", "objeto": "Dique"}, "geometry": {"type": "Point", "coordinates": [-60.78976966, -32.9511838]}}, {"type": "Feature", "properties": {"nombre": "Terraplén de Defensa del Río Salado", "tipo": "Dique", "objeto": "Dique"}, "geometry": {"type": "Point", "coordinates": [-58.49355863, -35.74291197]}}, {"type": "Feature", "properties": {"nombre": "Dique Luján (Buenos Aires)", "tipo": "Dique", "objeto": "Dique"}, "geometry": {"type": "Point", "coordinates": [-59.18611131, -34.59213489]}}, {"type": "Feature", "properties": {"nombre": "", "tipo": "Dique", "objeto": "Dique"}, "geometry": {"type": "Point", "coordinates": [-56.996384, -36.47995832]}}, {"type": "Feature", "properties": {"nombre": "", "tipo": "Dique", "objeto": "Dique"}, "geometry": {"type": "Point", "coordinates": [-56.99554097, -36.47978293]}}, {"type": "Feature", "properties": {"nombre": "Salto Andersen", "tipo": "Dique", "objeto": "Dique"}, "geometry": {"type": "Point", "coordinates": [-64.82199616, -38.82282717]}}, {"type": "Feature", "properties": {"nombre": "Dique Punto Unido", "tipo": "Dique", "objeto": "Dique"}, "geometry": {"type": "Point", "coordinates": [-67.76564303, -37.72282212]}}, {"type": "Feature", "properties": {"nombre": "Dique Itiyuro", "tipo": "Dique", "objeto": "Dique"}, "geometry": {"type": "Point", "coordinates": [-63.73810225, -22.09978627]}}, {"type": "Feature", "properties": {"nombre": "Dique Miraflores", "tipo": "Dique", "objeto": "Dique"}, "geometry": {"type": "Point", "coordinates": [-64.85455359, -25.31189056]}}, {"type": "Feature", "properties": {"nombre": "", "tipo": "Dique", "objeto": "Dique"}, "geometry": {"type": "Point", "coordinates": [-65.582649, -25.33030018]}}, {"type": "Feature", "properties": {"nombre": "", "tipo": "Dique", "objeto": "Dique"}, "geometry": {"type": "Point", "coordinates": [-65.57386427, -25.33348652]}}, {"type": "Feature", "properties": {"nombre": "Dique Peñas Blancas", "tipo": "Dique", "objeto": "Dique"}, "geometry": {"type": "Point", "coordinates": [-65.29095721, -25.29675476]}}, {"type": "Feature", "properties": {"nombre": "Dique El Cajón", "tipo": "Dique", "objeto": "Dique"}, "geometry": {"type": "Point", "coordinates": [-64.55032864, -30.85337094]}}, {"type": "Feature", "properties": {"nombre": "Dique La Florida", "tipo": "Dique", "objeto": "Dique"}, "geometry": {"type": "Point", "coordinates": [-66.00294257, -33.11351689]}}, {"type": "Feature", "properties": {"nombre": "Dique Paso de las Campanas", "tipo": "Dique", "objeto": "Dique"}, "geometry": {"type": "Point", "coordinates": [-65.17157194, -30.83427664]}}, {"type": "Feature", "properties": {"nombre": "Dique Medina", "tipo": "Dique", "objeto": "Dique"}, "geometry": {"type": "Point", "coordinates": [-65.81709656, -27.3595869]}}, {"type": "Feature", "properties": {"nombre": "", "tipo": "Dique", "objeto": "Dique"}, "geometry": {"type": "Point", "coordinates": [-65.93234161, -39.27537269]}}, {"type": "Feature", "properties": {"nombre": "", "tipo": "Dique", "objeto": "Dique"}, "geometry": {"type": "Point", "coordinates": [-58.06277142, -34.90410792]}}, {"type": "Feature", "properties": {"nombre": "", "tipo": "Dique", "objeto": "Dique"}, "geometry": {"type": "Point", "coordinates": [-58.06311109, -34.90427427]}}, {"type": "Feature", "properties": {"nombre": "Dique Tierras Blancas", "tipo": "Dique", "objeto": "Dique"}, "geometry": {"type": "Point", "coordinates": [-68.61762834, -34.9040299]}}, {"type": "Feature", "properties": {"nombre": "Dique Valle de Uco", "tipo": "Dique", "objeto": "Dique"}, "geometry": {"type": "Point", "coordinates": [-69.21240871, -33.75962687]}}, {"type": "Feature", "properties": {"nombre": "Dique Blas Brisoli", "tipo": "Dique", "objeto": "Dique"}, "geometry": {"type": "Point", "coordinates": [-69.64386548, -35.54489809]}}, {"type": "Feature", "properties": {"nombre": "Dique Batiruana", "tipo": "Dique", "objeto": "Dique"}, "geometry": {"type": "Point", "coordinates": [-65.74202552, -27.628938]}}, {"type": "Feature", "properties": {"nombre": "Dique Calera", "tipo": "Dique", "objeto": "Dique"}, "geometry": {"type": "Point", "coordinates": [-65.04361712, -26.61518397]}}, {"type": "Feature", "properties": {"nombre": "Dique Piedra del Águila", "tipo": "Dique", "objeto": "Dique"}, "geometry": {"type": "Point", "coordinates": [-69.991753, -40.190325]}}, {"type": "Feature", "properties": {"nombre": "Dique El Chocón", "tipo": "Dique", "objeto": "Dique"}, "geometry": {"type": "Point", "coordinates": [-68.75794475, -39.26580477]}}, {"type": "Feature", "properties": {"nombre": "", "tipo": "Dique", "objeto": "Dique"}, "geometry": {"type": "Point", "coordinates": [-69.45927863, -39.76786478]}}, {"type": "Feature", "properties": {"nombre": "", "tipo": "Dique", "objeto": "Dique"}, "geometry": {"type": "Point", "coordinates": [-70.26270177, -36.49225487]}}, {"type": "Feature", "properties": {"nombre": "Dique Alicurá", "tipo": "Dique", "objeto": "Dique"}, "geometry": {"type": "Point", "coordinates": [-70.75260801, -40.58565582]}}, {"type": "Feature", "properties": {"nombre": "Dique Mari Menuco", "tipo": "Dique", "objeto": "Dique"}, "geometry": {"type": "Point", "coordinates": [-68.69083113, -38.58071112]}}, {"type": "Feature", "properties": {"nombre": "", "tipo": "Dique", "objeto": "Dique"}, "geometry": {"type": "Point", "coordinates": [-68.14002969, -38.7267902]}}, {"type": "Feature", "properties": {"nombre": "", "tipo": "Dique", "objeto": "Dique"}, "geometry": {"type": "Point", "coordinates": [-68.13581064, -38.72946075]}}, {"type": "Feature", "properties": {"nombre": "", "tipo": "Dique", "objeto": "Dique"}, "geometry": {"type": "Point", "coordinates": [-68.13150711, -38.73221045]}}, {"type": "Feature", "properties": {"nombre": "", "tipo": "Dique", "objeto": "Dique"}, "geometry": {"type": "Point", "coordinates": [-69.76176535, -36.18053337]}}, {"type": "Feature", "properties": {"nombre": "", "tipo": "Dique", "objeto": "Dique"}, "geometry": {"type": "Point", "coordinates": [-70.83736211, -41.07297432]}}]}